City_ID,City,Lat,Lng,Max Temp,Humidity,Cloudiness,Wind Speed,Country,Date
0,waitangi,-43.9535,-176.5597,17.68,87,100,6.26,NZ,1712796394
1,trenton,40.217,-74.7429,18.18,74,75,2.57,US,1712796376
2,howrah,22.5892,88.3103,26.0,83,75,0.0,IN,1712796071
3,adamstown,-25.066,-130.1015,22.19,88,100,9.48,PN,1712796393
4,jamestown,42.097,-79.2353,14.8,51,100,1.54,US,1712796162
5,tandil,-37.3217,-59.1332,6.49,68,15,2.36,AR,1712796055
6,anna regina,7.2644,-58.5077,26.36,85,17,4.23,GY,1712796454
7,west island,-12.1568,96.8225,26.99,74,40,4.63,CC,1712796455
8,grytviken,-54.2811,-36.5092,0.94,89,26,5.84,GS,1712796455
9,orange,33.7,-117.7675,30.49,37,0,3.09,US,1712795831
10,lompoc,34.6391,-120.4579,25.08,71,0,5.66,US,1712796456
11,shijiazhuang,38.0414,114.4786,12.92,49,0,0.76,CN,1712796456
12,petropavlovsk-kamchatsky,53.0452,158.6483,3.76,70,20,16.09,RU,1712796457
13,rongelap,11.1635,166.8941,26.77,78,100,10.4,MH,1712796457
14,masterton,-40.9597,175.6575,22.28,40,100,5.85,NZ,1712796457
15,samana,19.2056,-69.3369,22.94,75,1,4.35,DO,1712796458
16,sinabang,2.4803,96.3801,27.56,80,100,1.08,ID,1712796415
17,whitehorse,60.7161,-135.0538,8.43,31,75,7.72,CA,1712795714
18,lorengau,-2.0226,147.2712,27.94,79,100,2.18,PG,1712796459
19,bomadi,5.1593,5.9252,26.13,88,100,1.64,NG,1712796459
20,bethel,41.3712,-73.414,14.67,79,100,2.57,US,1712796459
21,bredasdorp,-34.5322,20.0403,14.8,67,23,5.74,ZA,1712795927
22,kapa'a,22.0752,-159.319,28.99,64,0,4.63,US,1712796460
23,nemuro,43.3236,145.575,5.12,65,5,4.5,JP,1712796068
24,bilibino,68.0546,166.4372,-12.18,75,10,0.9,RU,1712796395
25,coxen hole,16.3244,-86.5366,28.6,79,100,12.35,HN,1712796258
26,greenville,35.6127,-77.3663,22.02,66,0,4.63,US,1712795916
27,san patricio,28.017,-97.5169,25.97,42,0,7.26,US,1712795993
28,villa huidobro,-34.8383,-64.5869,9.19,84,100,0.24,AR,1712796462
29,valparaiso,-33.0393,-71.6273,16.67,61,100,1.54,CL,1712796204
30,la mira,18.035,-102.3266,24.67,70,29,4.28,MX,1712796463
31,jalqani,12.4486,34.2186,27.53,11,6,3.86,SD,1712796463
32,uturoa,-16.7333,-151.4333,28.96,78,25,8.08,PF,1712796464
33,punta arenas,-53.15,-70.9167,7.06,76,40,8.23,CL,1712796118
34,atafu village,-8.5421,-172.5159,29.97,73,78,4.22,TK,1712796331
35,toliara,-23.35,43.6667,24.99,86,75,3.65,MG,1712796204
36,lata,40.1629,-8.3327,12.73,80,100,1.75,PT,1712796465
37,nakamura,32.9833,132.9333,17.06,72,100,4.22,JP,1712796466
38,port moresby,-9.4431,147.1797,29.68,74,75,2.06,PG,1712796305
39,keflavik,64.0049,-22.5624,4.24,75,0,7.2,IS,1712796466
40,jiuquan,39.7432,98.5174,11.59,37,5,2.94,CN,1712796467
41,gulu,2.7746,32.299,19.91,81,27,1.92,UG,1712796467
42,thompson,55.7435,-97.8558,9.09,49,100,4.63,CA,1712796002
43,ushuaia,-54.8,-68.3,6.81,76,20,7.2,AR,1712796468
44,ponta delgada,37.7333,-25.6667,18.44,88,75,5.66,PT,1712796468
45,badger,64.8,-147.5333,6.93,33,20,0.0,US,1712796468
46,puerto natales,-51.7236,-72.4875,2.86,91,9,2.51,CL,1712796301
47,ryotsu-minato,38.0833,138.4333,13.2,53,100,1.81,JP,1712796469
48,blackmans bay,-43.0167,147.3167,16.4,59,40,0.89,AU,1712796470
49,guiyang,26.5833,106.7167,15.27,100,100,2.0,CN,1712796470
50,edinburgh of the seven seas,-37.0676,-12.3116,17.79,81,100,1.75,SH,1712796394
51,myrina,39.8797,25.0742,12.58,71,0,0.0,GR,1712796471
52,khovd,48.0056,91.6419,6.51,41,100,1.65,MN,1712796471
53,aktanysh,55.7216,54.0829,5.38,85,17,1.4,RU,1712796472
54,mount pearl,47.5166,-52.7813,-0.48,79,100,4.63,CA,1712796472
55,georgetown,5.4112,100.3354,27.19,83,20,1.54,MY,1712795922
56,smara,26.7384,-11.6719,30.11,16,0,7.61,EH,1712796473
57,sidney,-33.8679,151.2073,21.87,56,75,6.69,AU,1712796225
58,letterkenny,54.95,-7.7333,11.32,89,100,7.48,IE,1712796474
59,palikir - national government center,6.9248,158.1611,29.47,89,100,7.2,FM,1712795999
60,sisimiut,66.9395,-53.6735,-6.36,78,100,2.52,GL,1712796475
61,labrador city,52.9463,-66.9114,-0.05,42,0,2.57,CA,1712795996
62,luderitz,-26.6481,15.1594,21.25,50,0,4.94,NA,1712796475
63,sitka,57.0531,-135.33,3.94,87,100,9.26,US,1712795736
64,dudinka,69.4058,86.1778,-31.85,100,100,1.34,RU,1712796476
65,takoradi,4.8845,-1.7554,27.58,83,100,1.87,GH,1712796476
66,tura,25.5198,90.2201,25.37,33,100,1.26,IN,1712796477
67,hawaiian paradise park,19.5933,-154.9731,26.04,74,75,3.6,US,1712796477
68,avarua,-21.2078,-159.775,28.03,89,75,9.26,CK,1712796478
69,buta,2.7858,24.73,21.22,69,90,1.02,CD,1712796478
70,abidjan,5.3094,-4.0197,28.98,84,40,4.63,CI,1712796479
71,port elizabeth,-33.918,25.5701,13.51,87,0,2.57,ZA,1712796445
72,hasaki,35.7333,140.8333,17.94,56,100,3.73,JP,1712796479
73,novodvinsk,64.4165,40.8122,5.99,100,100,5.41,RU,1712796480
74,belyy yar,53.6039,91.3903,3.94,81,40,3.0,RU,1712796480
75,st. john's,47.5649,-52.7093,-0.02,79,100,4.63,CA,1712795757
76,serenje,-13.2325,30.2352,18.37,92,100,1.07,ZM,1712796481
77,ilulissat,69.2167,-51.1,-7.99,62,100,0.0,GL,1712796481
78,maun,-19.9833,23.4167,18.72,41,57,2.67,BW,1712796482
79,tshabong,-26.05,22.45,16.74,40,0,3.07,BW,1712796482
80,college,64.8569,-147.8028,6.97,33,20,0.0,US,1712796422
81,marki,52.3206,21.1047,12.94,64,0,4.63,PL,1712796483
82,wotje,9.4543,170.2367,27.0,78,86,9.81,MH,1712796483
83,vilyuchinsk,52.9306,158.4028,4.58,74,52,17.47,RU,1712795921
84,broken hill,-31.95,141.4333,16.19,54,0,5.64,AU,1712796212
85,nenjiang,49.1833,125.2167,10.18,38,0,1.2,CN,1712796484
86,port-aux-francais,-49.35,70.2167,7.04,95,100,6.71,TF,1712796402
87,puerto ayora,-0.7393,-90.3518,25.31,99,65,2.34,EC,1712796397
88,hilo,19.7297,-155.09,27.38,66,75,3.6,US,1712796289
89,nuku'alofa,-21.1333,-175.2,29.19,74,40,7.47,TO,1712796404
90,buon ma thuot,12.6667,108.05,26.77,61,3,3.13,VN,1712796341
91,olonkinbyen,70.9221,-8.7187,-6.99,72,100,5.52,SJ,1712795963
92,puerto leguizamo,-0.1934,-74.7819,24.41,91,44,1.97,CO,1712796487
93,severnoye,56.3491,78.3619,-5.01,88,100,3.13,RU,1712796488
94,ta`u,-14.2336,-169.5144,29.18,77,33,4.09,AS,1712796488
95,romodanovo,54.4275,45.3296,9.49,86,76,2.44,RU,1712796488
96,zouerate,22.7187,-12.4521,27.36,11,0,0.79,MR,1712796489
97,kununurra,-15.7667,128.7333,26.99,41,52,6.17,AU,1712796297
98,albany,42.6001,-73.9662,12.04,92,100,1.09,US,1712796346
99,ji'an,27.1172,114.9793,19.81,89,100,1.01,CN,1712796490
100,kapuskasing,49.4169,-82.4331,11.05,58,40,1.54,CA,1712795976
101,nantucket,41.2835,-70.0995,9.45,93,75,7.2,US,1712796448
102,rio claro,-22.4114,-47.5614,21.49,77,25,0.74,BR,1712796491
103,semirom,31.4167,51.5667,5.74,66,0,8.63,IR,1712796491
104,kerikeri,-35.2268,173.9474,21.06,93,100,7.96,NZ,1712796292
105,koryazhma,61.3143,47.1691,3.84,88,100,5.1,RU,1712796492
106,igarka,67.4667,86.5833,-26.64,97,40,4.04,RU,1712796492
107,morondava,-20.2833,44.2833,25.29,88,100,2.64,MG,1712796493
108,barcelos,41.5388,-8.6151,14.27,85,100,1.91,PT,1712796217
109,qaqortoq,60.7167,-46.0333,-5.27,94,95,1.04,GL,1712796427
110,caxias,38.7031,-9.2767,18.35,57,0,3.09,PT,1712796494
111,yellowknife,62.456,-114.3525,0.79,87,20,3.6,CA,1712796193
112,al bawiti,28.3492,28.8659,15.83,48,0,1.6,EG,1712796494
113,port mathurin,-19.6833,63.4167,26.75,78,27,4.9,MU,1712796495
114,alice springs,-23.7,133.8833,19.56,34,3,7.2,AU,1712796483
115,elblag,54.1522,19.4088,7.21,81,1,2.82,PL,1712796496
116,iqaluit,63.7506,-68.5145,-2.15,79,100,4.63,CA,1712795934
117,tolanaro,-25.0319,46.9987,24.04,94,40,1.03,MG,1712796496
118,colotlan,22.1,-103.2667,21.9,10,11,3.45,MX,1712796497
119,tir pul,34.5943,61.269,13.88,57,53,1.36,AF,1712796497
120,enewetak,11.3474,162.3373,27.15,80,100,9.78,MH,1712796498
121,salalah,17.0151,54.0924,26.05,73,40,1.54,OM,1712796498
122,mpika,-11.8343,31.4529,18.03,95,100,1.25,ZM,1712796055
123,tynda,55.1667,124.7167,-5.66,95,68,0.28,RU,1712796499
124,remire-montjoly,4.9167,-52.2667,28.02,83,75,2.57,GF,1712796499
125,tara,56.8944,74.371,-3.65,86,100,3.02,RU,1712796500
126,lepsy,46.235,78.9456,9.87,73,100,2.64,KZ,1712796500
127,ribeira grande,38.5167,-28.7,17.65,94,75,8.05,PT,1712796500
128,guerrero negro,27.9769,-114.0611,21.52,40,0,6.55,MX,1712796423
129,codrington,-38.2667,141.9667,14.69,65,100,4.64,AU,1712796501
130,arraial do cabo,-22.9661,-42.0278,25.22,88,0,5.31,BR,1712796502
131,invercargill,-46.4,168.35,9.45,98,100,2.68,NZ,1712796405
132,paros,37.0833,25.15,19.06,76,0,2.06,GR,1712796502
133,christchurch,-43.5333,172.6333,26.41,62,40,7.2,NZ,1712796219
134,lugovoye,42.9094,72.7178,9.41,68,37,2.01,KZ,1712796503
135,cidreira,-30.1811,-50.2056,22.54,74,100,3.05,BR,1712796503
136,murudeshwara,14.0943,74.4845,25.77,84,5,1.41,IN,1712796504
137,coquimbo,-29.9533,-71.3436,13.85,100,100,2.57,CL,1712796222
138,newman,37.3138,-121.0208,27.13,49,100,2.24,US,1712796505
139,naze,28.3667,129.4833,19.51,64,97,2.46,JP,1712796505
140,sao joao da barra,-21.6403,-41.0511,24.05,87,0,3.06,BR,1712796505
141,necochea,-38.5473,-58.7368,12.65,66,80,5.45,AR,1712796433
142,hermanus,-34.4187,19.2345,13.78,72,3,8.27,ZA,1712796417
143,sequeira,40.5536,-7.2259,13.01,77,100,2.59,PT,1712796507
144,iskateley,67.6803,53.1512,-8.88,93,100,7.15,RU,1712796507
145,kailua-kona,19.6406,-155.9956,28.49,71,20,4.12,US,1712796262
146,talnakh,69.4865,88.3972,-32.11,99,91,1.7,RU,1712796508
147,kiunga,-6.1219,141.2906,29.7,70,85,2.03,PG,1712796508
148,margaret river,-33.95,115.0667,17.86,55,96,5.19,AU,1712796045
149,selfoss,63.9331,-20.9971,2.25,74,100,8.72,IS,1712796509
150,namibe,-15.1961,12.1522,21.96,71,100,3.04,AO,1712796509
151,cestos city,5.46,-9.5828,27.23,86,98,1.8,LR,1712796510
152,chui,-33.6971,-53.4616,15.88,63,73,5.89,UY,1712796510
153,rio grande,-32.035,-52.0986,20.06,73,99,9.02,BR,1712796297
154,smithers,54.7804,-127.1743,8.18,49,100,4.12,CA,1712796065
155,vorgashor,67.5833,63.95,-26.25,100,100,1.99,RU,1712796511
156,tazacorte,28.629,-17.9293,19.54,77,75,5.14,ES,1712796250
157,urangan,-25.3,152.9,25.11,66,100,4.92,AU,1712796512
158,sho'rchi,38.0141,67.7899,16.73,50,6,3.88,UZ,1712796512
159,salinopolis,-0.6136,-47.3561,26.8,85,100,3.67,BR,1712796512
160,sidi okba,34.7451,5.8983,18.16,48,40,6.69,DZ,1712796513
161,la cruz,23.9167,-106.9,21.07,53,0,2.7,MX,1712796513
162,nouadhibou,20.931,-17.0347,18.99,82,0,5.66,MR,1712796514
163,tiksi,71.6872,128.8694,-14.48,89,100,1.58,RU,1712796514
164,port alfred,-33.5906,26.891,16.58,67,45,5.52,ZA,1712796514
165,pertek,38.8663,39.3268,5.76,79,98,0.68,TR,1712796515
166,hadagalli,15.0167,75.95,25.52,65,4,2.71,IN,1712796515
167,ust'-kulom,61.6864,53.6902,0.66,99,100,1.98,RU,1712796515
168,al burayqah,30.4062,19.5739,17.02,64,0,4.23,LY,1712796516
169,san antonio de pale,-1.4014,5.6325,28.31,81,100,4.29,GQ,1712796517
170,zhaoyuan,37.3592,120.3964,17.01,57,0,5.96,CN,1712796517
171,tralee,52.2704,-9.7026,10.87,96,32,2.96,IE,1712796517
172,mudkhed,19.1667,77.5167,25.2,62,16,5.3,IN,1712796518
173,tazovsky,67.4667,78.7,-30.32,100,70,2.52,RU,1712796518
174,xam nua,20.4197,104.0439,24.12,68,100,0.64,LA,1712796518
175,kingston,17.997,-76.7936,28.53,74,20,8.75,JM,1712796132
176,isangel,-19.55,169.2667,32.06,70,40,3.09,VU,1712796438
177,rio gallegos,-51.6226,-69.2181,7.03,61,0,4.63,AR,1712796361
178,fisterra,42.9049,-9.2629,11.53,75,98,3.96,ES,1712796520
179,lebu,-37.6167,-73.65,11.67,75,87,1.01,CL,1712796061
180,ouadda,8.0777,22.4007,22.29,40,98,0.78,CF,1712796520
181,nar'yan-mar,67.6713,53.087,-8.83,93,100,7.15,RU,1712796521
182,nyurba,63.2842,118.3319,-7.08,92,100,5.0,RU,1712796409
183,richards bay,-28.783,32.0377,19.52,80,99,9.05,ZA,1712796521
184,al fuwayliq,26.4432,43.2534,18.88,29,83,4.43,SA,1712796522
185,vadso,70.0744,29.7487,3.49,93,100,2.57,NO,1712796522
186,vila franca do campo,37.7167,-25.4333,18.27,99,100,4.02,PT,1712796522
187,sehwan,26.4279,67.863,27.59,38,0,2.57,PK,1712796523
188,dapa,9.7594,126.0531,27.18,75,80,0.71,PH,1712796523
189,slave lake,55.2834,-114.769,6.99,45,0,2.06,CA,1712796249
190,tual,-5.6667,132.75,28.74,69,89,4.13,ID,1712796461
191,fale old settlement,-9.3852,-171.2468,30.1,73,20,3.65,TK,1712796432
192,rutland,43.6167,-73.0162,11.38,94,100,0.89,US,1712796525
193,poso,-1.3959,120.7524,29.21,68,67,0.67,ID,1712796525
194,ghat,24.9647,10.1728,24.9,31,96,4.43,LY,1712796526
195,wailua homesteads,22.0669,-159.378,28.24,71,0,4.63,US,1712796526
196,flying fish cove,-10.4217,105.6791,27.82,78,75,3.6,CX,1712796448
197,susanville,40.4163,-120.653,21.91,23,0,0.0,US,1712796527
198,anadyr,64.75,177.4833,-6.72,67,40,9.0,RU,1712796424
199,tejen,37.3834,60.5054,17.23,35,87,4.95,TM,1712796528
200,ust-nera,64.5667,143.2,-7.68,86,100,3.83,RU,1712796478
201,as sulayyil,20.4607,45.5779,29.14,50,49,1.28,SA,1712796528
202,lihue,21.9789,-159.3672,28.58,63,0,4.63,US,1712796504
203,saint-laurent-du-maroni,5.5039,-54.0289,25.42,89,100,1.93,GF,1712796529
204,malango,-2.9627,119.9001,25.82,71,67,0.99,ID,1712796529
205,hithadhoo,-0.6,73.0833,29.69,70,100,3.4,MV,1712796530
206,ketchikan,55.3422,-131.6461,6.99,87,100,3.09,US,1712796530
207,wulingyuan,29.3494,110.5441,12.84,96,100,0.16,CN,1712796530
208,kangding,30.0513,101.9603,12.11,59,22,1.34,CN,1712796531
209,mawlaik,23.6333,94.4167,24.89,23,7,1.18,MM,1712796531
210,kone,-21.0595,164.8658,24.59,96,100,1.74,NC,1712796532
211,weno,7.4515,151.8468,26.97,94,100,3.6,FM,1712796532
212,anyksciai,55.5256,25.1026,6.68,82,93,4.41,LT,1712796533
213,bilaspur,22.0833,82.15,25.29,53,100,2.47,IN,1712796533
214,udachny,66.4167,112.4,-24.75,93,79,8.28,RU,1712796533
215,halol,22.5,73.4667,25.58,49,100,2.34,IN,1712796534
216,manismata,-2.4667,111.0333,26.67,88,100,1.26,ID,1712796534
217,papatowai,-46.5619,169.4708,9.37,97,100,8.15,NZ,1712796535
218,kisanga,-7.4362,37.7034,23.8,92,100,0.9,TZ,1712796535
219,yulinshi,38.2906,109.7494,15.3,49,0,2.51,CN,1712796536
220,swift current,50.2834,-107.8014,8.45,34,20,11.83,CA,1712796299
221,papao,-17.75,-149.55,30.82,83,100,8.9,PF,1712796536
222,pisco,-13.7,-76.2167,22.03,83,0,4.63,PE,1712796537
223,katabu,-4.9333,122.5167,30.18,67,41,0.51,ID,1712796537
224,yuzhno-kurilsk,44.0306,145.8556,4.65,76,98,3.38,RU,1712796537
225,tanout,14.9709,8.8879,27.48,9,18,5.1,NE,1712796538
226,kodiak,57.79,-152.4072,2.73,56,20,3.6,US,1712796538
227,brookings,44.3114,-96.7984,14.0,56,40,6.69,US,1712796363
228,hamilton,39.1834,-84.5333,16.97,96,100,1.54,US,1712796038
229,brandon,27.9378,-82.2859,27.0,77,0,4.63,US,1712796370
230,berdigestyakh,62.0989,126.6992,-0.39,92,70,3.68,RU,1712796539
231,utrik,11.2278,169.8474,26.62,78,97,10.45,MH,1712796540
232,klyuchi,52.2667,79.1667,2.88,97,100,1.41,RU,1712796540
233,malayer,34.2969,48.8235,6.82,83,0,1.25,IR,1712796540
234,klaksvik,62.2266,-6.589,7.51,97,100,10.27,FO,1712796541
235,longyearbyen,78.2186,15.6401,-15.09,72,20,5.66,SJ,1712796541
236,changde,29.0464,111.6783,16.01,92,100,1.27,CN,1712796542
237,sibolga,1.7427,98.7792,27.56,78,96,0.43,ID,1712796542
238,carrizal,10.3499,-66.9863,20.67,55,0,0.87,VE,1712796543
239,tongchuan,35.0806,109.0897,16.74,60,100,1.33,CN,1712796543
240,tromso,69.6496,18.957,3.01,87,75,2.57,NO,1712796543
241,polyarnyy,69.1989,33.4478,2.79,93,100,8.35,RU,1712796544
242,harstad,68.799,16.5293,3.12,97,100,14.31,NO,1712796544
243,isafjordur,66.0755,-23.124,-4.08,89,84,1.95,IS,1712796544
244,burutu,5.3509,5.5076,27.04,84,100,2.29,NG,1712796545
245,lander,42.833,-108.7307,9.22,51,81,2.63,US,1712796404
246,saint-georges,12.0564,-61.7485,27.82,74,20,6.17,GD,1712796262
247,manay,7.215,126.5397,29.15,57,98,3.5,PH,1712796546
248,chadron,42.8294,-102.9999,10.86,32,0,11.83,US,1712796546
249,estevan,49.1334,-102.9842,9.11,43,100,10.8,CA,1712796041
250,saipan,15.1355,145.701,31.39,62,40,8.23,MP,1712796547
251,betio village,1.358,172.9211,31.02,78,100,4.35,KI,1712796548
252,hassi messaoud,31.6804,6.0729,17.92,42,0,3.6,DZ,1712796548
253,khandyga,62.6667,135.6,-2.06,86,63,2.52,RU,1712796548
254,sungai raya,0.7,108.9,27.91,78,100,1.75,ID,1712796025
255,mityana,0.4175,32.0228,17.49,99,90,0.15,UG,1712796549
256,balamban,10.4667,123.7833,25.25,55,34,2.71,PH,1712796549
257,mirny,62.5353,113.9611,-12.09,83,100,3.58,RU,1712796550
258,courtenay,49.6866,-124.9936,12.77,61,100,4.63,CA,1712796550
259,lodja,-3.4833,23.4333,22.18,90,100,0.74,CD,1712796551
260,egilsstadir,65.2653,-14.3948,1.95,80,75,4.63,IS,1712796551
261,mweka,-4.85,21.5667,21.19,93,100,0.4,CD,1712796552
262,la rinconada,37.4873,-5.9826,17.96,60,0,4.12,ES,1712796552
263,tahe,52.3333,124.7333,6.89,44,0,0.86,CN,1712796552
264,pandan,14.0453,124.1694,28.24,69,75,3.58,PH,1712796553
265,east london,-33.0153,27.9116,16.33,73,41,6.32,ZA,1712796553
266,taroa,8.7058,171.2275,27.42,79,94,9.37,MH,1712796554
267,puerto colombia,10.9878,-74.9547,28.05,82,2,8.21,CO,1712796554
268,obo,5.3998,26.4869,21.99,50,65,0.89,CF,1712796554
269,daru,-9.0763,143.2092,27.12,87,100,1.0,PG,1712796078
270,port saint john's,-31.6229,29.5448,16.8,83,67,7.56,ZA,1712795980
271,crane,31.3974,-102.3501,20.01,21,0,5.66,US,1712796555
272,sredets,42.3475,27.179,10.06,78,0,0.33,BG,1712796556
273,dabakala,8.3667,-4.4333,24.25,87,100,0.56,CI,1712796556
274,cozumel,20.5083,-86.9458,27.75,83,2,5.34,MX,1712796450
275,mount gambier,-37.8333,140.7667,14.97,58,100,3.07,AU,1712796401
276,latur,18.4,76.5833,28.09,46,77,4.92,IN,1712796557
277,savsat,41.2403,42.3611,8.69,93,100,0.57,TR,1712796558
278,haiku-pauwela,20.9219,-156.3051,28.01,61,20,7.72,US,1712796558
279,tamanrasset,22.785,5.5228,24.95,13,0,5.14,DZ,1712796559
280,la'ie,21.6477,-157.9253,27.66,75,94,4.92,US,1712796380
281,la grande,45.3246,-118.0877,16.66,30,45,1.27,US,1712796487
282,nuuk,64.1835,-51.7216,-2.66,86,100,0.51,GL,1712796540
283,edd,13.9297,41.6925,27.4,83,6,2.49,ER,1712796560
284,cascais,38.6979,-9.4215,18.36,58,100,4.47,PT,1712796381
285,annaba,36.9,7.7667,10.98,87,40,2.06,DZ,1712796561
286,la passe,45.5549,-0.8967,12.21,79,100,1.1,FR,1712796384
287,lerwick,60.1545,-1.1494,9.0,93,100,11.91,GB,1712796561
288,malpica,43.3228,-8.8105,11.85,60,100,1.75,ES,1712796562
289,raja,8.4596,25.678,25.64,20,44,0.58,SS,1712796562
290,kudahuvadhoo,2.6708,72.8944,29.57,67,51,3.09,MV,1712796562
291,lorrach,47.615,7.6646,7.35,78,0,1.03,DE,1712796357
292,nova sintra,14.8667,-24.7167,22.53,77,6,9.23,CV,1712796406
293,mazagao,-0.115,-51.2894,29.03,95,64,1.58,BR,1712796563
294,pearsall,28.8922,-99.095,27.66,39,0,8.87,US,1712796326
295,carnarvon,-24.8667,113.6333,26.03,49,10,9.04,AU,1712796564
296,broome,42.2506,-75.833,14.83,89,100,1.54,US,1712796564
297,woolgoolga,-30.1106,153.2007,23.93,56,2,7.87,AU,1712796565
298,plastun,44.7561,136.2939,10.57,34,100,1.88,RU,1712796565
299,kristiansund,63.1115,7.732,4.36,81,12,1.03,NO,1712796566
300,coos bay,43.3665,-124.2179,16.84,71,0,7.72,US,1712796446
301,panaba,21.2833,-88.2667,28.96,58,15,6.43,MX,1712796566
302,suomussalmi,64.8869,28.9078,3.34,97,100,6.6,FI,1712796567
303,timimoun,29.2639,0.231,21.21,13,0,3.6,DZ,1712796567
304,ungsang-nodongjagu,42.3578,130.4622,4.99,84,100,1.93,KP,1712796568
305,kavaratti,10.5669,72.642,28.77,71,100,3.75,IN,1712796568
306,roma,43.2128,-75.4557,14.82,92,100,1.54,US,1712796568
307,ishikari,43.2397,141.3539,11.04,46,92,4.12,JP,1712796569
308,zuni pueblo,35.0725,-108.8506,18.35,19,0,7.96,US,1712796569
309,stanley,54.868,-1.6985,13.01,88,75,5.66,GB,1712796569
310,minas de marcona,-15.2119,-75.1103,17.53,83,100,5.49,PE,1712796570
311,leisure city,25.4954,-80.4292,25.57,79,20,5.14,US,1712796570
312,priozersk,61.0393,30.1291,6.72,82,11,8.33,RU,1712796571
313,westport,41.1415,-73.3579,14.22,85,100,5.14,US,1712796320
314,port lincoln,-34.7333,135.8667,16.48,63,96,3.6,AU,1712796571
315,aksu,41.1231,80.2644,13.91,24,0,2.6,CN,1712796572
316,markala,13.7021,-6.0659,33.17,30,100,3.69,ML,1712796572
317,jindabyne,-36.4167,148.6333,14.44,49,1,2.17,AU,1712796311
318,ironwood,46.4547,-90.171,16.45,29,20,3.6,US,1712796573
319,kurchum,48.5722,83.6542,5.23,96,100,2.63,KZ,1712796574
320,salur,18.5333,83.2167,26.55,58,9,0.74,IN,1712796574
321,bandarbeyla,9.4942,50.8122,27.15,77,26,2.9,SO,1712796574
322,ciudad bolivar,8.1222,-63.5497,31.77,42,95,7.64,VE,1712796575
323,tionk essil,12.7856,-16.5217,22.03,76,0,3.55,SN,1712796575
324,pemangkat,1.1667,108.9667,27.09,83,8,2.87,ID,1712796576
325,karratha,-20.7377,116.8463,28.16,49,7,6.63,AU,1712796576
326,severo-yeniseyskiy,60.3725,93.0408,-14.68,85,94,1.79,RU,1712796577
327,dunedin,-45.8742,170.5036,12.67,97,100,4.92,NZ,1712796577
328,bom jesus,-9.0744,-44.3586,26.47,65,62,0.83,BR,1712796577
329,dul'durga,50.6761,113.5931,9.77,67,17,1.47,RU,1712796578
330,gamay,12.3854,125.2979,28.31,72,100,3.51,PH,1712796578
331,tsengel,49.4783,100.8894,5.28,38,11,1.53,MN,1712796579
332,floro,61.5996,5.0328,5.98,75,100,6.69,NO,1712796579
333,djenne,13.9061,-4.5533,32.54,33,96,3.68,ML,1712796579
334,atherton,53.5237,-2.4935,13.19,92,90,0.45,GB,1712796288
335,wad medani,14.4012,33.5199,26.51,12,3,4.39,SD,1712796581
336,laguna,38.421,-121.4238,26.99,40,0,3.09,US,1712796230
337,constantia,44.1833,28.65,10.39,60,0,3.65,RO,1712796581
338,kalianget,-7.05,113.9333,28.87,75,100,1.08,ID,1712796582
339,nizhniy odes,63.6445,54.856,-3.32,99,100,2.61,RU,1712796582
340,rangia,26.4667,91.6333,21.97,39,79,5.65,IN,1712796583
341,al ghayzah,16.2079,52.176,25.9,75,12,3.09,YE,1712796583
342,aliwal north,-30.6937,26.7114,9.5,75,14,6.42,ZA,1712796583
343,baikonur,45.6167,63.3167,12.65,51,39,2.92,KZ,1712796584
344,el granada,37.5027,-122.4694,26.4,68,0,7.2,US,1712796584
345,singkil,-7.9855,111.4161,27.74,80,53,0.32,ID,1712796584
346,saudarkrokur,65.7461,-19.6394,-2.73,84,100,2.66,IS,1712796586
347,tacuarembo,-31.7333,-55.9833,14.94,76,100,6.05,UY,1712796587
348,yonggwang-up,40.0183,127.4547,12.75,58,100,1.3,KP,1712796587
349,piraquara,-25.4417,-49.0633,20.16,64,20,2.06,BR,1712796429
350,katsuura,35.1333,140.3,16.01,60,92,4.3,JP,1712796589
351,constitucion,-35.3333,-72.4167,10.42,78,3,1.82,CL,1712796452
352,villa gesell,-37.2639,-56.973,13.92,54,100,7.07,AR,1712796293
353,canonsburg,40.2626,-80.1873,16.27,92,100,0.0,US,1712796533
354,pont rouge,48.8833,-72.0825,6.06,77,100,5.38,CA,1712796590
355,dolbeau-mistassini,48.8763,-72.212,6.26,80,100,4.83,CA,1712796591
356,prince rupert,54.3161,-130.3201,7.83,95,100,12.35,CA,1712796591
357,morehead city,34.7229,-76.726,19.45,82,0,3.13,US,1712796392
358,beyneu,45.3167,55.2,16.55,45,46,3.14,KZ,1712796592
359,walvis bay,-22.9575,14.5053,13.53,94,0,2.06,NA,1712796592
360,colonia,50.9333,6.95,9.9,73,0,1.03,DE,1712796592
361,edea,3.8,10.1333,25.16,98,100,1.85,CM,1712796593
362,turochak,52.2576,87.1224,3.03,99,100,1.36,RU,1712796593
363,new norfolk,-42.7826,147.0587,17.06,47,35,1.12,AU,1712796594
364,bishkek,42.87,74.59,4.11,59,77,1.27,KG,1712796594
365,asikkala,61.2167,25.5,5.03,84,100,8.63,FI,1712796595
366,touros,-5.1989,-35.4608,26.18,86,89,1.55,BR,1712796595
367,port douglas,-16.4833,145.4667,26.78,70,100,6.61,AU,1712796437
368,susuman,62.7833,148.1667,-12.11,77,79,1.4,RU,1712796596
369,laojunmiao,39.8333,97.7333,12.13,12,62,1.85,CN,1712796596
370,turaif,31.6725,38.6637,12.14,71,0,5.14,SA,1712796597
371,cabanillas del campo,40.6338,-3.2294,14.84,68,62,3.21,ES,1712796560
372,yaren,-0.5472,166.916,27.47,85,100,4.4,NR,1712796597
373,kotido,2.9806,34.1331,22.05,75,19,3.43,UG,1712796598
374,zakynthos,37.7914,20.8953,14.8,84,100,2.96,GR,1712796080
375,kyabe,9.4515,18.9449,32.45,18,93,1.38,TD,1712796599
376,saint-valery-en-caux,49.8667,0.7333,12.64,93,100,6.32,FR,1712796600
377,upington,-28.4478,21.2561,15.21,51,0,2.06,ZA,1712796600
378,sarangani,5.4033,125.4636,27.15,77,75,8.83,PH,1712796600
379,neryungri,56.6709,124.6491,-2.25,87,74,2.78,RU,1712796601
380,yeppoon,-23.1333,150.7333,23.88,50,0,2.79,AU,1712796601
381,champerico,14.3,-91.9167,33.3,66,94,1.74,GT,1712796602
382,fort st. john,56.2499,-120.8529,7.94,31,75,7.72,CA,1712796603
383,holualoa,19.6228,-155.9522,26.42,72,20,4.12,US,1712796604
384,bassar,9.25,0.7833,26.99,66,100,1.48,TG,1712796604
385,bourg-saint-maurice,45.6172,6.769,5.88,91,6,3.79,FR,1712796605
386,hua hin,12.5707,99.9588,29.01,84,40,0.0,TH,1712796606
387,pergamino,-33.89,-60.5736,13.59,50,100,4.37,AR,1712796474
388,selibaby,15.159,-12.1829,33.04,29,0,2.88,MR,1712796607
389,kuala belait,4.5833,114.1833,28.09,82,50,1.74,BN,1712796608
390,tonghae,37.5439,129.1069,15.93,59,100,0.6,KR,1712796608
391,diplo,24.4667,69.584,23.66,60,93,3.14,PK,1712796609
392,sigli,5.3848,95.9609,28.35,69,100,0.9,ID,1712796609
393,znamenskoye,57.1281,73.8282,-3.77,84,100,2.42,RU,1712796610
394,birobidzhan,48.8,132.95,11.89,29,75,3.15,RU,1712796610
395,namdrik,5.5994,168.1028,28.12,82,67,8.09,MH,1712796611
396,hengchun,22.0042,120.7439,26.72,68,27,4.47,TW,1712796611
397,chibougamau,49.9168,-74.3659,6.79,53,40,2.57,CA,1712796612
398,qarqaraly,49.4058,75.4742,1.57,89,100,6.44,KZ,1712796612
399,sosnogorsk,63.6023,53.8817,-1.37,97,100,2.68,RU,1712796612
400,saint augustine,29.8947,-81.3145,23.41,79,20,7.72,US,1712796483
401,saldanha,-33.0117,17.9442,16.03,74,0,6.83,ZA,1712796613
402,tabas,33.5959,56.9244,23.68,21,0,5.37,IR,1712796614
403,aden,12.7794,45.0367,27.2,80,12,4.21,YE,1712796327
404,fortuna,40.5982,-124.1573,15.52,83,0,5.66,US,1712796614
405,geraldton,-28.7667,114.6,25.23,31,2,6.69,AU,1712796495
406,dzhambeyty,50.2536,52.595,8.37,91,0,3.6,KZ,1712796615
407,cidade velha,14.9167,-23.6167,22.26,68,20,5.66,CV,1712796616
408,korsor,55.3299,11.1386,7.77,99,99,7.94,DK,1712796616
409,the pinery,39.4553,-104.7344,10.61,47,75,3.6,US,1712796490
410,sao jose da coroa grande,-8.8978,-35.1478,26.69,83,100,1.01,BR,1712796617
411,twon-brass,4.3151,6.2418,28.71,76,100,3.3,NG,1712796617
412,portland,45.5234,-122.6762,19.54,38,75,3.6,US,1712796460
413,luanda,-8.8368,13.2343,26.0,82,20,2.06,AO,1712796535
414,gazli,40.1333,63.45,14.83,43,100,5.4,UZ,1712796619
415,qarawul,37.2202,68.7804,15.83,58,5,2.2,AF,1712796619
416,aasiaat,68.7098,-52.8699,-9.1,81,100,1.69,GL,1712796619
417,grande prairie,55.1667,-118.8027,11.1,20,75,2.57,CA,1712796363
418,santa cruz,-17.8,-63.1667,25.7,89,75,2.06,BO,1712796541
419,badagry,6.4167,2.8833,28.05,85,56,3.59,NG,1712796621
420,baardheere,2.3446,42.2764,27.79,75,87,3.58,SO,1712796622
421,birjand,32.8663,59.2211,16.26,29,0,7.2,IR,1712796622
422,page,36.9147,-111.4558,21.88,15,0,3.13,US,1712796623
423,la ronge,55.1001,-105.2842,9.14,53,40,9.26,CA,1712796623
424,inari,68.906,27.0288,2.2,98,100,4.4,FI,1712796623
425,gornopravdinsk,60.05,69.9,-7.2,93,100,1.93,RU,1712796624
426,dengzhou,37.8086,120.7508,16.17,57,0,5.72,CN,1712796625
427,kamaishi,39.2667,141.8833,12.12,63,33,5.49,JP,1712796625
428,darwin,-12.4611,130.8418,28.83,54,0,5.66,AU,1712795913
429,merizo village,13.2658,144.6691,29.43,93,100,8.17,GU,1712796626
430,suva,-18.1416,178.4415,29.71,74,75,4.63,FJ,1712796372
431,inyonga,-6.7167,32.0667,19.25,97,100,1.65,TZ,1712796628
432,kenai,60.5544,-151.2583,4.05,65,40,3.6,US,1712796628
433,maragogi,-9.0122,-35.2225,26.08,85,100,0.64,BR,1712796630
434,aswan,24.0934,32.907,20.61,26,0,1.54,EG,1712796125
435,saint croix,17.7397,-64.7388,26.25,83,20,6.17,VI,1712796631
436,tomohon,1.3346,124.8392,26.52,59,49,1.51,ID,1712796633
437,kuta,-8.7233,115.1723,27.97,94,20,1.54,ID,1712796634
438,malanje,-9.5402,16.341,18.68,98,67,0.91,AO,1712796636
439,furstenberg,53.1833,13.15,4.54,91,11,2.41,DE,1712796637
440,qulsary,46.9531,54.0198,16.26,55,82,4.3,KZ,1712796637
441,ponnani,10.767,75.9252,27.62,83,69,1.64,IN,1712796638
442,chonchi,-42.6128,-73.8092,8.56,80,0,0.73,CL,1712796497
443,magole,-6.3667,37.3667,22.02,97,100,0.82,TZ,1712796639
444,kitimat,54.0524,-128.6534,8.16,79,100,3.13,CA,1712796639
445,jiagedaqi,50.4167,124.1167,9.48,39,8,1.89,CN,1712796640
446,waingapu,-9.6567,120.2641,28.35,75,100,5.98,ID,1712796640
447,saint-joseph,-21.3667,55.6167,23.21,78,57,2.68,RE,1712796641
448,tadine,-21.55,167.8833,28.42,73,70,2.68,NC,1712796641
449,mili,6.0815,171.735,28.04,83,100,7.93,MH,1712796642
450,sogndal,61.2283,7.1003,5.21,75,100,0.0,NO,1712796642
451,magadan,59.5667,150.8,-3.04,64,71,0.77,RU,1712796642
452,vila do maio,15.1333,-23.2167,22.44,77,6,6.18,CV,1712796643
453,hovd,48.0056,91.6419,6.51,41,100,1.65,MN,1712796471
454,manaure,11.7751,-72.4445,27.42,76,43,8.15,CO,1712796644
455,port blair,11.6667,92.75,28.02,89,40,1.03,IN,1712796644
456,freetown,8.484,-13.2299,26.84,78,20,3.09,SL,1712796645
457,nelson bay,-32.7167,152.15,21.72,65,100,7.6,AU,1712796645
458,turkmenbasy,40.0222,52.9552,17.43,36,0,6.17,TM,1712796646
459,agbabu,6.5886,4.8343,26.5,92,100,1.09,NG,1712796646
460,al kharijah,25.4514,30.5464,18.21,36,94,3.35,EG,1712796646
461,vorkuta,67.5,64.0,-26.47,100,100,1.65,RU,1712796647
462,beira,-19.8436,34.8389,27.05,83,75,7.2,MZ,1712796647
463,saint-pierre,-21.3393,55.4781,23.82,73,0,3.09,RE,1712796647
464,shahpur,16.7,76.8333,28.39,50,100,5.91,IN,1712796648
465,achkhoy-martan,43.19,45.28,11.85,82,100,0.99,RU,1712796648
466,hammerfest,70.6634,23.6821,2.25,100,100,2.57,NO,1712796648
467,pitimbu,-7.4706,-34.8086,27.33,86,100,2.27,BR,1712796649
468,quelimane,-17.8786,36.8883,28.97,89,40,1.55,MZ,1712796649
469,akureyri,65.6835,-18.0878,-1.04,80,100,1.03,IS,1712796650
470,kpandu,6.9954,0.2931,26.3,80,100,0.71,GH,1712796650
471,uliastay,47.7417,96.8444,4.07,43,63,2.1,MN,1712796650
472,nogliki,51.8333,143.1667,7.05,71,0,6.13,RU,1712796537
473,sanawad,22.1833,76.0667,27.06,53,100,1.14,IN,1712796651
474,baiao,-2.7906,-49.6717,24.09,99,100,0.72,BR,1712796651
475,kita,13.0349,-9.4895,31.69,36,100,2.71,ML,1712796652
476,quang ngai,15.1167,108.8,28.16,61,88,1.51,VN,1712796652
477,san jose de jachal,-30.2406,-68.7469,10.12,64,100,2.6,AR,1712796652
478,anta,25.15,76.3,25.15,45,42,2.37,IN,1712796653
479,afaahiti,-17.75,-149.2833,29.93,83,100,8.13,PF,1712796653
480,san luis de la loma,17.2706,-100.8939,25.31,78,98,3.67,MX,1712796653
481,tindouf,27.6711,-8.1474,27.25,18,0,3.6,DZ,1712796654
482,aguililla,18.7333,-102.7333,27.4,36,90,2.78,MX,1712796654
483,pemba,-12.974,40.5178,26.23,87,100,1.78,MZ,1712796654
484,santo antonio do ica,-3.1022,-67.9397,24.31,97,100,0.75,BR,1712796655
485,brak,27.5496,14.2714,19.83,19,100,8.09,LY,1712796655
486,midvagur,62.0511,-7.1939,7.46,87,100,10.8,FO,1712796656
487,guaiba,-30.1139,-51.325,22.92,80,75,3.6,BR,1712796656
488,zhuanghe,39.7008,122.9911,11.43,70,5,4.06,CN,1712796657
489,altay,47.8667,88.1167,3.77,93,100,1.95,CN,1712796657
490,port augusta,-32.5,137.7667,19.06,52,0,4.33,AU,1712796658
491,qamdo,31.1667,97.2333,-1.25,65,24,1.78,CN,1712796658
492,cooma,-36.2333,149.1333,13.72,48,0,2.75,AU,1712796583
493,naracoorte,-36.9579,140.7383,15.47,55,100,3.39,AU,1712796659
494,ca mau,9.1769,105.15,31.39,59,11,6.38,VN,1712796659
495,maridi,4.9158,29.4742,22.04,63,50,2.01,SS,1712796659
496,thinadhoo,0.5333,72.9333,29.45,72,86,3.81,MV,1712796406
497,kingaroy,-26.5333,151.8333,22.48,52,0,0.92,AU,1712796660
498,trinity beach,-16.7888,145.6968,29.94,58,75,7.72,AU,1712796660
499,mukalla,14.5425,49.1242,25.74,75,18,1.91,YE,1712796661
500,luganville,-15.5333,167.1667,30.51,61,77,2.03,VU,1712796661
501,lazaro cardenas,17.9583,-102.2,24.8,74,5,4.5,MX,1712796661
502,olyokminsk,60.3736,120.4264,1.06,66,100,2.98,RU,1712796662
503,omsk,55.0,73.4,-0.06,74,40,3.0,RU,1712796609
504,porto novo,6.4965,2.6036,28.08,81,49,2.99,BJ,1712796474
505,pontes e lacerda,-15.2261,-59.3353,24.21,95,97,0.65,BR,1712796663
506,tsiombe,-25.3,45.4833,23.56,84,100,5.24,MG,1712796423
507,barkly west,-28.5354,24.5215,13.1,60,0,5.67,ZA,1712796664
508,harper,4.375,-7.7169,27.43,81,100,1.99,LR,1712796665
509,vernon,50.2581,-119.2691,17.01,33,99,1.54,CA,1712796665
510,kerema,-7.9631,145.7785,29.16,71,100,2.0,PG,1712796665
511,macapa,0.0389,-51.0664,28.99,84,20,3.09,BR,1712796666
512,mil'kovo,55.6078,37.7956,14.22,79,100,3.28,RU,1712796666
513,mula,38.0409,-1.4901,12.34,48,14,3.79,ES,1712796666
514,margate,51.3813,1.3862,12.71,92,100,3.13,GB,1712796667
515,kot samaba,28.5522,70.4684,25.12,23,0,4.63,PK,1712796667
516,la carlota,10.4233,122.9208,30.86,46,88,2.53,PH,1712796667
517,ola,59.5833,151.2833,-2.7,60,20,1.9,RU,1712796668
518,birzebbuga,35.8258,14.5269,15.38,67,0,7.72,MT,1712796668
519,kruisfontein,-34.0033,24.7314,12.16,77,74,2.5,ZA,1712796668
520,cinisi,38.1562,13.1073,11.56,62,20,3.09,IT,1712796669
521,micheweni,-4.9667,39.8333,27.71,84,100,2.08,TZ,1712796669
522,ndele,8.4109,20.6473,28.11,42,94,1.51,CF,1712796669
523,tsagan aman,47.5639,46.7218,15.0,56,2,2.88,RU,1712796670
524,fort bragg,35.139,-79.006,22.91,66,40,2.57,US,1712796442
525,xai-xai,-25.0519,33.6442,22.6,77,95,7.81,MZ,1712796671
526,souillac,-20.5167,57.5167,25.21,88,40,1.54,MU,1712796671
527,kiruna,67.8557,20.2251,2.51,75,100,5.14,SE,1712796672
528,mount isa,-20.7333,139.5,23.87,29,1,5.66,AU,1712796672
529,ambon,-3.6954,128.1814,28.08,83,40,2.06,ID,1712796423
530,sept-iles,50.2001,-66.3821,0.03,84,20,2.06,CA,1712796584
531,newquay,50.4132,-5.0819,12.42,100,75,7.2,GB,1712796673
532,bereznik,62.8551,42.7072,5.95,94,100,4.98,RU,1712796673
533,qir moav,31.1825,35.7,11.95,79,0,2.21,JO,1712796674
534,okhotsk,59.3833,143.3,-1.53,70,11,5.34,RU,1712796674
535,sitangkai,4.6628,119.3928,27.75,75,100,1.99,PH,1712796675
536,thunder bay,48.4001,-89.3168,6.99,76,75,4.12,CA,1712796381
537,suklayin,15.7574,121.5503,27.58,79,100,1.66,PH,1712796675
538,nirgua,10.1553,-68.5663,19.29,94,3,1.84,VE,1712796676
539,charef,34.621,2.795,5.99,52,94,2.17,DZ,1712796676
540,khvoynaya,58.9,34.5333,10.94,71,100,5.33,RU,1712796676
541,shanwei,22.782,115.3475,22.44,76,44,3.43,CN,1712796677
542,wafangdian,39.6183,122.0081,13.45,61,2,3.81,CN,1712796678
543,almodovar del campo,38.7094,-4.1791,12.94,67,18,1.63,ES,1712796678
544,ak-dovurak,51.1833,90.6,4.5,64,10,1.34,RU,1712796679
545,canto do buriti,-8.11,-42.9444,27.34,71,100,1.06,BR,1712796679
546,choyr,46.3611,108.3611,9.63,48,100,7.02,MN,1712796679
547,aral,40.5156,81.2636,14.42,93,7,2.95,CN,1712796680
548,alta,69.9689,23.2717,1.59,86,75,17.88,NO,1712796680
549,acajutla,13.5928,-89.8275,28.42,72,22,1.68,SV,1712796681
550,mahavelona,-17.6848,49.5087,25.99,93,100,3.07,MG,1712796682
551,meadow lakes,61.6247,-149.6011,6.32,67,0,3.6,US,1712796682
552,tallkayf,36.4894,43.1192,14.01,87,96,1.91,IQ,1712796682
553,preobrazheniye,42.9019,133.9064,6.52,88,100,1.76,RU,1712796683
554,yugorsk,61.3133,63.3319,-13.95,96,22,1.69,RU,1712796683
555,vila velha,-20.3297,-40.2925,24.97,95,75,1.54,BR,1712796684
556,asbestos,45.7668,-71.9324,8.96,90,100,4.58,CA,1712796684
557,veinticinco de mayo,-35.4323,-60.1727,12.77,80,98,0.45,AR,1712796430
558,port hedland,-20.3167,118.5667,29.03,37,8,6.17,AU,1712796413
559,makaha,21.4694,-158.2175,27.63,53,20,4.63,US,1712796685
560,yanchep,-31.55,115.6833,21.45,39,0,6.26,AU,1712796686
561,jumla,29.2747,82.1838,5.38,42,2,1.96,NP,1712796686
562,bryne,58.7354,5.6477,8.3,93,100,10.8,NO,1712796687
563,kendari,-3.945,122.4989,27.87,78,100,0.37,ID,1712796687
564,usakos,-22.0,15.6,21.86,36,0,2.26,NA,1712796687
565,kattivakkam,13.2167,80.3167,28.4,76,100,1.43,IN,1712796688
566,cockburn town,21.4612,-71.1419,24.98,65,40,6.69,TC,1712796680
567,arawa,-6.2132,155.5367,29.37,82,90,0.48,PG,1712796689
568,acapulco de juarez,16.8634,-99.8901,25.9,78,75,6.17,MX,1712796679
569,alofi,-19.0595,-169.9187,28.94,74,75,4.63,NU,1712796689
570,las lomitas,-24.7096,-60.593,22.43,98,95,4.45,AR,1712796487
571,kasongo-lunda,-6.4667,16.8167,22.0,97,88,0.27,CD,1712796690
572,sam roi yot,12.2708,99.872,28.99,73,100,1.14,TH,1712796690
573,galle,6.0367,80.217,26.11,79,33,3.65,LK,1712796691
574,san luis del palmar,-27.5079,-58.5545,21.93,94,100,7.62,AR,1712796667
575,xaloztoc,19.4036,-98.0486,18.34,34,4,5.12,MX,1712796691
576,pawai,24.2667,80.1667,25.24,45,100,1.96,IN,1712796692
577,tanda,26.55,82.65,25.5,33,29,1.34,IN,1712796692
578,gokwe,-18.2048,28.9349,18.17,92,100,1.87,ZW,1712796692
579,dehloran,32.6941,47.2679,20.43,57,0,2.18,IR,1712796693
580,ceeldheer,3.8488,47.1806,27.69,75,0,4.15,SO,1712796693
581,gornozavodsk,58.3758,58.3211,-0.24,92,100,1.06,RU,1712796694
582,stettler,52.3168,-112.7186,9.86,23,27,5.14,CA,1712796661
583,watsa,3.0372,29.5355,18.93,80,99,1.14,CD,1712796694
584,fuding,27.3273,120.214,20.64,76,99,0.64,CN,1712796695
585,solleftea,63.1667,17.2667,5.92,74,25,7.59,SE,1712796695
586,aripuana,-9.1667,-60.6333,24.27,98,94,0.79,BR,1712796696
587,muynoq,43.7683,59.0214,13.75,40,13,1.09,UZ,1712796696
588,mogadishu,2.0371,45.3438,29.0,72,89,4.7,SO,1712796696
589,adrar,20.5022,-10.0711,29.39,15,0,4.06,MR,1712796697
